{
  "motorcycleStores": [
    {
      "name": "Motostore Barendrecht",
      "address": "Aalborg 9, 2993 LP Barendrecht",
      "phoneNumber": "0180750734",
      "website": "http://www.motostorebarendrecht.nl/",
      "latitude": 51.856915,
      "longitude": 4.548765
    },
    {
      "name": "TecMotors",
      "address": "Harregatplein 7b, 3214 VP Zuidland",
      "phoneNumber": "0181454068",
      "website": "http://www.tec-motors.nl/",
      "latitude": 51.821345,
      "longitude": 4.264782
    },
    {
      "name": "Baecke motoren",
      "address": "Nachtegaalstraat 1, 3201 VL Spijkenisse",
      "phoneNumber": "0181612377",
      "website": "http://www.scooterzaak.nl/",
      "latitude": 51.854672,
      "longitude": 4.331125
    },
    {
      "name": "Van Gils Motors",
      "address": "Achterpad 20, 3193 LA Hoogvliet Rotterdam",
      "phoneNumber": "0624223541",
      "website": "http://www.vangilsmotors.nl/",
      "latitude": 51.858659,
      "longitude": 4.354628
    },
    {
      "name": "Suur Motoren",
      "address": "Laurens Janszn. Costerstraat 7A, 3261 LH Oud-Beijerland",
      "phoneNumber": "0186682233",
      "website": "http://www.suurmotoren.nl/",
      "latitude": 51.816671,
      "longitude": 4.426860
    },
    {
      "name": "MR Motoren",
      "address": "Van Het Hoffstraat 21, 2991 XP Barendrecht",
      "phoneNumber": "0102237860",
      "website": "http://mrmotoren.bmw-motorrad.nl/",
      "latitude": 51.864357,
      "longitude": 4.559642
    },
    {
      "name": "Benjan Motoren",
      "address": "Kaartenmakerstraat 1, 2984 CB Ridderkerk",
      "phoneNumber": "0180418952",
      "website": "https://www.benjan.nl/",
      "latitude": 51.880288,
      "longitude": 4.595676
    },
    {
      "name": "Dynojet Rotterdam",
      "address": "Lierenstraat 11, 2984 AE Ridderkerk",
      "phoneNumber": "0180699226",
      "website": "http://www.dynojet-rotterdam.nl/",
      "latitude": 51.881949,
      "longitude": 4.607154
    },
    {
      "name": "BikeShop Nultien",
      "address": "Gemzenstraat 22, 2901 BL Capelle aan den IJssel",
      "phoneNumber": "0102004994",
      "website": "http://www.bikeshopnultien.nl/",
      "latitude": 51.932566,
      "longitude": 4.568377
    },
    {
      "name": "Moto Rotterdam",
      "address": "Strickledeweg 112, 3044 EL Rotterdam",
      "phoneNumber": "0104625556",
      "website": "https://motorotterdam.nl/",
      "latitude": 51.943929,
      "longitude": 4.435698
    },
    {
      "name": "Cama Motoren & Scooters",
      "address": "Pieter Jelle Troelstraweg 8, 3144 CX Maassluis",
      "phoneNumber": "0105990777",
      "website": "http://www.camamotoren.nl/",
      "latitude": 51.923336,
      "longitude": 4.246593
    },
    {
      "name": "Goedhart Motoren",
      "address": "Europaweg 1D, 2411 NE Bodegraven",
      "phoneNumber": "0172650005",
      "website": "https://www.goedhartmotoren.nl/",
      "latitude": 52.085752,
      "longitude": 4.738196
    },
    {
      "name": "Hans van Wijk Motoren",
      "address": "Goudstraat 97, 2718 RD Zoetermeer",
      "phoneNumber": "0793619013",
      "website": "http://www.hansvanwijk.nl/",
      "latitude": 52.056510,
      "longitude": 4.491409
    },
    {
      "name": "Van Veen Motoren",
      "address": "'s-Gravenzandseweg 53, 2291 PE Wateringen",
      "phoneNumber": "0615404354",
      "website": "http://www.vanveenmotoren.nl/",
      "latitude": 52.023652,
      "longitude": 4.271288
    },
    {
      "name": "Motor Houtrust B.V.",
      "address": "Pr. Arianelaan 10, 2496 XB Den Haag",
      "phoneNumber": "0703177177",
      "website": "https://motorhoutrust.nl/",
      "latitude": 52.062719,
      "longitude": 4.375789
    },
    {
      "name": "HARLEY DAVIDSON",
      "address": "Evertsenstraat 147, 2315 RZ Leiden",
      "phoneNumber": "0622060573",
      "website": "http://mscl.nu/Home/",
      "latitude": 52.160158,
      "longitude": 4.509415
    }
  ]
}